City ID,City,Country,Date,Lat,Lng,Max Temp (F),Humidity (%),Cloudiness (%),Wind Speed (mph)
0,Ushuaia,AR,2022-12-28 04:00:47,-54.8,-68.3,40.66,75,75,26.46
1,Rikitea,PF,2022-12-28 04:00:47,-23.1203,-134.9692,78.22,73,24,10.27
2,Butaritari,KI,2022-12-28 04:00:48,3.0707,172.7902,80.04,82,67,15.66
3,San Patricio,US,2022-12-28 04:00:48,28.017,-97.5169,46.08,79,30,5.7
4,Chapais,CA,2022-12-28 03:55:49,49.7834,-74.8492,-9.62,100,65,3.67
5,Bethel,US,2022-12-28 04:00:49,41.3712,-73.414,32.94,69,24,2.82
6,Cape Town,ZA,2022-12-28 03:57:58,-33.9258,18.4232,65.12,81,0,2.3
7,Bredasdorp,ZA,2022-12-28 04:00:49,-34.5322,20.0403,65.14,83,80,3.33
8,Albany,US,2022-12-28 04:00:36,42.6001,-73.9662,26.02,77,58,2.77
9,Mackay,AU,2022-12-28 04:00:50,-21.15,149.2,86.68,61,73,16.11
10,Tasiilaq,GL,2022-12-28 04:00:50,65.6145,-37.6368,-0.24,48,0,4.07
11,Upernavik,GL,2022-12-28 04:00:50,72.7868,-56.1549,2.08,75,100,6.55
12,Castro,BR,2022-12-28 04:00:51,-24.7911,-50.0119,62.46,98,44,4.65
13,Conceição do Araguaia,BR,2022-12-28 03:57:29,-8.2578,-49.2647,71.71,98,100,1.48
14,Shubarkuduk,KZ,2022-12-28 04:00:52,49.1447,56.4872,12.63,96,100,4.9
15,Dingle,PH,2022-12-28 04:00:52,10.9995,122.6711,74.52,95,100,9.31
16,Rocha,UY,2022-12-28 03:56:37,-34.4833,-54.3333,62.38,71,100,8.55
17,Vanimo,PG,2022-12-28 04:00:52,-2.6741,141.3028,82.96,70,92,6.4
18,Cabo San Lucas,MX,2022-12-28 03:58:07,22.8909,-109.9124,71.51,72,0,3.58
19,Urk,NL,2022-12-28 04:00:53,52.6625,5.6014,46.98,96,100,27.51
20,Mount Isa,AU,2022-12-28 04:00:43,-20.7333,139.5,87.57,55,88,9.22
21,Port Alfred,ZA,2022-12-28 04:00:53,-33.5906,26.891,68.18,91,99,4.0
22,Puerto Ayora,EC,2022-12-28 04:00:54,-0.7393,-90.3518,72.55,94,94,3.0
23,New Norfolk,AU,2022-12-28 04:00:54,-42.7826,147.0587,74.7,47,62,14.79
24,Tiksi,RU,2022-12-28 04:00:54,71.6872,128.8694,-17.55,100,98,2.86
25,Bluff,NZ,2022-12-28 04:00:55,-46.6,168.3333,62.62,78,6,13.87
26,Kapaa,US,2022-12-28 04:00:55,22.0752,-159.319,76.98,88,6,8.25
27,Cherskiy,RU,2022-12-28 04:00:55,68.75,161.3,-10.12,99,100,3.04
28,Baoro,CF,2022-12-28 04:00:56,5.6667,15.9667,61.52,42,100,5.41
29,Verkhnyaya Toyma,RU,2022-12-28 04:00:56,62.2349,44.9985,7.81,94,100,8.95
30,Punta Arenas,CL,2022-12-28 04:00:57,-53.15,-70.9167,42.12,79,100,16.87
31,Hithadhoo,MV,2022-12-28 04:00:57,-0.6,73.0833,81.07,74,48,12.64
32,Tegul'det,RU,2022-12-28 04:00:58,57.3064,88.1667,12.15,91,100,3.98
33,Yerbogachën,RU,2022-12-28 04:00:58,61.2767,108.0108,5.27,94,91,9.08
34,Lüderitz,NA,2022-12-28 04:00:58,-26.6481,15.1594,61.18,67,0,14.54
35,Filingué,NE,2022-12-28 04:00:59,14.3521,3.3168,64.13,29,13,12.5
36,Fairbanks,US,2022-12-28 04:01:00,64.8378,-147.7164,3.6,78,100,3.06
37,Yangi Marg`ilon,UZ,2022-12-28 04:01:00,40.4272,71.7189,30.92,74,39,4.61
38,Takoradze,GH,2022-12-28 04:01:00,4.8845,-1.7554,77.7,77,22,4.79
39,Zhigansk,RU,2022-12-28 04:01:01,66.7697,123.3711,-13.11,98,100,21.3
40,Kostek,RU,2022-12-28 04:01:01,43.3439,46.8541,36.1,85,71,7.56
41,Dwārka,IN,2022-12-28 03:56:06,22.2394,68.9678,72.99,35,9,13.13
42,Burnie,AU,2022-12-28 04:01:02,-41.0667,145.9167,69.94,50,83,15.5
43,Camacha,PT,2022-12-28 04:01:02,33.0833,-16.3333,60.22,88,20,5.75
44,Khorramshahr,IR,2022-12-28 04:01:03,30.4397,48.1664,49.96,93,66,9.22
45,Atuona,PF,2022-12-28 04:01:03,-9.8,-139.0333,78.01,76,72,12.21
46,Carnarvon,AU,2022-12-28 04:01:04,-24.8667,113.6333,91.72,32,73,19.6
47,Dzidzantun,MX,2022-12-28 04:01:04,21.25,-89.05,64.89,82,3,3.31
48,Flinders,AU,2022-12-28 04:01:04,-34.5833,150.8552,85.24,62,0,8.99
49,Umm Kaddadah,SD,2022-12-28 04:01:05,13.6017,26.6876,53.65,40,0,15.66
50,Klaksvík,FO,2022-12-28 04:01:06,62.2266,-6.589,34.72,85,100,4.52
51,Airai,TL,2022-12-28 04:01:07,-8.9266,125.4092,64.92,87,100,4.29
52,Nanortalik,GL,2022-12-28 04:01:07,60.1432,-45.2371,24.58,86,100,3.49
53,Hirado,JP,2022-12-28 04:01:07,33.3597,129.5531,50.4,56,25,15.73
54,Mount Gambier,AU,2022-12-28 04:01:08,-37.8333,140.7667,65.64,43,5,13.2
55,Ambilobe,MG,2022-12-28 04:01:08,-13.2,49.05,77.22,82,40,2.01
56,Te Anau,NZ,2022-12-28 04:01:08,-45.4167,167.7167,80.96,35,0,7.83
57,Bilibino,RU,2022-12-28 03:56:37,68.0546,166.4372,-21.8,99,100,1.83
58,Ibrā’,OM,2022-12-28 04:01:09,22.6906,58.5334,66.76,79,31,1.36
59,Thompson,CA,2022-12-28 04:01:09,55.7435,-97.8558,-13.86,97,24,7.96
60,Qaanaaq,GL,2022-12-28 04:01:09,77.484,-69.3632,-12.21,98,100,1.43
61,Nome,US,2022-12-28 04:01:10,64.5011,-165.4064,4.15,84,100,5.19
62,Kirakira,SB,2022-12-28 04:01:10,-10.4544,161.9205,83.68,79,91,9.86
63,Tari,NG,2022-12-28 04:01:11,12.4086,4.4914,64.9,26,1,13.73
64,Cidreira,BR,2022-12-28 04:01:11,-30.1811,-50.2056,66.49,92,100,14.92
65,Bandarbeyla,SO,2022-12-28 04:01:12,9.4942,50.8122,74.97,71,11,11.36
66,Ponta do Sol,PT,2022-12-28 04:01:12,32.6667,-17.1,63.01,27,0,5.68
67,Boca do Acre,BR,2022-12-28 03:57:38,-8.7522,-67.3978,73.67,76,36,2.3
68,Busselton,AU,2022-12-28 04:00:26,-33.65,115.3333,77.25,28,0,1.21
69,Lavrentiya,RU,2022-12-28 04:01:13,65.5833,-171.0,-4.97,92,44,10.54
70,Sørland,NO,2022-12-28 04:01:14,67.667,12.6934,33.66,66,100,27.04
71,Aban,RU,2022-12-28 03:57:38,56.67,96.06,15.22,91,100,4.16
72,Krasnosel'kup,RU,2022-12-28 04:01:14,65.7,82.4667,-17.05,100,85,3.96
73,Torbay,CA,2022-12-28 04:01:14,47.6666,-52.7314,37.58,92,75,16.11
74,George Town,MY,2022-12-28 04:01:15,5.4112,100.3354,85.93,69,20,10.36
75,Guerrero Negro,MX,2022-12-28 04:01:15,27.9769,-114.0611,61.88,68,36,5.75
76,Asău,RO,2022-12-28 03:56:36,46.4333,26.4,33.28,82,11,4.38
77,Bonavista,CA,2022-12-28 04:01:16,48.6499,-53.1147,31.68,97,100,8.48
78,Chui,UY,2022-12-28 04:01:16,-33.6971,-53.4616,64.65,68,100,7.78
79,Rio Grande,BR,2022-12-28 04:01:16,-32.035,-52.0986,65.95,68,100,9.57
80,Malbork,PL,2022-12-28 03:57:40,54.0359,19.0266,36.84,94,60,11.3
81,Aquiraz,BR,2022-12-28 04:01:17,-3.9014,-38.3911,81.18,79,50,13.06
82,Puerto del Rosario,ES,2022-12-28 04:01:17,28.5004,-13.8627,69.55,73,0,14.97
83,Faya,SA,2022-12-28 03:56:30,18.3851,42.4509,46.51,70,25,6.04
84,Petropavlovsk-Kamchatskiy,RU,2022-12-28 03:57:41,53.0452,158.6483,18.19,53,0,6.71
85,Kavieng,PG,2022-12-28 04:01:18,-2.5744,150.7967,84.72,64,52,6.93
86,Mataura,NZ,2022-12-28 04:01:18,-46.1927,168.8643,82.8,38,0,4.21
87,Brae,GB,2022-12-28 04:01:19,60.3964,-1.353,40.19,94,100,22.77
88,Lakshmīpur,BD,2022-12-28 04:01:19,22.95,90.8333,73.9,69,24,4.59
89,Hobart,AU,2022-12-28 04:01:20,-42.8794,147.3294,75.06,46,40,20.71
90,Hasaki,JP,2022-12-28 04:01:20,35.7333,140.8333,57.29,56,100,4.81
91,Saldanha,ZA,2022-12-28 04:01:21,-33.0117,17.9442,62.62,93,1,7.76
92,São João da Barra,BR,2022-12-28 04:01:21,-21.6403,-41.0511,74.12,91,100,11.45
93,Dikson,RU,2022-12-28 04:01:21,73.5069,80.5464,-17.73,95,83,2.66
94,Lagan,RU,2022-12-28 04:01:22,45.3929,47.3707,33.67,70,95,7.92
95,Sasebo,JP,2022-12-28 03:57:43,33.1592,129.7228,51.78,52,20,11.21
96,Vaini,TO,2022-12-28 04:01:23,-21.2,-175.2,81.09,74,93,7.72
97,Rāmgarh,IN,2022-12-28 03:57:43,23.6333,85.5167,62.65,22,0,6.62
98,Mar del Plata,AR,2022-12-28 04:01:23,-38.0023,-57.5575,68.09,89,90,11.01
99,Bagdarin,RU,2022-12-28 04:01:24,54.4333,113.6,1.4,66,4,1.81
100,Mana,GF,2022-12-28 03:57:44,5.6592,-53.7767,75.24,90,72,8.43
101,Sawtell,AU,2022-12-28 03:57:45,-30.3833,153.1,79.18,65,0,13.8
102,Vilhena,BR,2022-12-28 03:56:46,-12.7406,-60.1458,69.66,91,39,4.14
103,Laguna,US,2022-12-28 04:01:26,38.421,-121.4238,53.17,94,0,8.05
104,Walvis Bay,NA,2022-12-28 04:01:26,-22.9575,14.5053,62.1,94,6,8.99
105,San Cristobal,VE,2022-12-28 04:01:26,7.7669,-72.225,64.06,75,38,1.23
106,East London,ZA,2022-12-28 04:00:34,-33.0153,27.9116,69.62,80,86,14.52
107,Emba,KZ,2022-12-28 04:01:27,48.8264,58.1442,19.78,88,100,6.35
108,San Andrés,CO,2022-12-28 03:57:46,12.5847,-81.7006,80.62,78,75,8.05
109,Ulaangom,MN,2022-12-28 04:01:27,49.9811,92.0667,-13.97,97,98,1.74
110,Wukari,NG,2022-12-28 03:57:46,7.85,9.7833,68.92,28,3,7.52
111,Telšiai,LT,2022-12-28 04:01:28,55.9814,22.2472,32.77,91,50,10.58
112,Norman Wells,CA,2022-12-28 04:01:28,65.282,-126.8329,-18.24,99,100,2.06
113,Dicamay,PH,2022-12-28 04:01:29,16.7561,122.0037,68.52,95,100,3.47
114,Kazachinskoye,RU,2022-12-28 04:01:29,57.6953,93.2761,14.07,94,100,3.49
115,Turaif,SA,2022-12-28 04:01:29,31.6725,38.6637,45.59,82,55,6.87
116,Weihe,CN,2022-12-28 03:57:48,32.9952,105.3247,37.0,27,87,4.16
117,Longyearbyen,SJ,2022-12-28 04:01:14,78.2186,15.6401,33.64,75,75,20.71
118,Suntar,RU,2022-12-28 04:01:30,62.1444,117.6319,8.1,92,100,8.66
119,Tuktoyaktuk,CA,2022-12-28 04:01:30,69.4541,-133.0374,-19.52,99,35,8.43
120,Port Hedland,AU,2022-12-28 04:01:31,-20.3167,118.5667,96.85,36,20,8.05
121,Khomutovo,RU,2022-12-28 04:01:31,52.4658,104.4025,-1.59,86,81,1.95
122,Clyde River,CA,2022-12-28 04:01:31,70.4692,-68.5914,-10.97,84,75,12.66
123,Kavaratti,IN,2022-12-28 03:57:49,10.5669,72.642,82.06,77,0,14.5
124,Hamilton,US,2022-12-28 03:52:26,39.1834,-84.5333,33.75,86,40,6.91
125,Port Elizabeth,ZA,2022-12-28 04:01:32,-33.918,25.5701,63.1,86,8,9.78
126,Byron Bay,AU,2022-12-28 04:01:32,-28.65,153.6167,79.95,60,27,8.28
127,Lander,US,2022-12-28 04:01:33,42.833,-108.7307,43.39,74,78,20.45
128,Beloha,MG,2022-12-28 03:57:50,-25.1667,45.05,77.58,74,2,3.76
129,Trincomalee,LK,2022-12-28 04:01:34,8.5711,81.2335,79.77,80,16,12.19
130,Sisimiut,GL,2022-12-28 03:57:08,66.9395,-53.6735,12.0,74,19,13.22
131,Hofn,IS,2022-12-28 04:01:34,64.2539,-15.2082,24.1,80,99,12.15
132,Show Low,US,2022-12-28 04:01:34,34.2542,-110.0298,47.08,40,0,17.27
133,Vila Velha,BR,2022-12-28 04:01:07,-20.3297,-40.2925,75.94,89,97,5.01
134,Hermanus,ZA,2022-12-28 04:01:35,-34.4187,19.2345,62.8,82,68,3.89
135,Vysokogornyy,RU,2022-12-28 03:57:51,50.1167,139.15,11.03,88,100,3.4
136,Gubin,PL,2022-12-28 04:01:35,51.9496,14.7284,38.28,84,87,10.83
137,Lompoc,US,2022-12-28 04:01:36,34.6391,-120.4579,56.59,98,100,4.61
138,Srandakan,ID,2022-12-28 04:01:36,-7.9386,110.2506,84.47,70,98,13.13
139,Mazyr,BY,2022-12-28 03:57:52,52.0495,29.2456,32.99,92,99,14.72
140,Sitka,US,2022-12-28 04:01:37,57.0531,-135.33,37.29,87,100,3.44
141,Mahébourg,MU,2022-12-28 04:01:37,-20.4081,57.7,81.25,70,8,13.42
142,Kulhudhuffushi,MV,2022-12-28 04:01:37,6.6221,73.07,80.74,78,12,12.5
143,Benghazi,LY,2022-12-28 03:57:53,32.1167,20.0667,63.39,78,15,7.61
144,Ponta Delgada,PT,2022-12-28 04:01:38,37.7333,-25.6667,59.72,100,75,16.11
145,Alofi,NU,2022-12-28 04:01:38,-19.0595,-169.9187,81.0,72,81,5.14
146,Avarua,CK,2022-12-28 04:01:39,-21.2078,-159.775,78.64,74,56,9.95
147,La Ronge,CA,2022-12-28 04:01:39,55.1001,-105.2842,1.94,92,100,13.82
148,Beringovskiy,RU,2022-12-28 03:56:55,63.05,179.3167,-1.66,98,100,18.81
149,Teahupoo,PF,2022-12-28 04:01:40,-17.8333,-149.2667,71.56,75,4,11.14
150,Lepe,ES,2022-12-28 04:01:41,37.2548,-7.2043,56.19,54,7,5.77
151,Severobaykal'sk,RU,2022-12-28 04:01:41,55.65,109.3167,3.65,80,100,1.05
152,Şabyā,SA,2022-12-28 04:01:42,17.1495,42.6254,75.6,58,0,2.19
153,Raglan,NZ,2022-12-28 04:00:57,-37.8,174.8833,81.3,52,3,7.36
154,Oktyabr'skiy,RU,2022-12-28 03:57:07,54.4815,53.471,9.34,96,100,2.57
155,San Jose,US,2022-12-28 03:59:24,37.3394,-121.895,52.83,92,20,1.99
156,Tuatapere,NZ,2022-12-28 04:01:42,-46.1333,167.6833,68.85,69,10,6.73
157,Mahibadhoo,MV,2022-12-28 04:01:43,3.7833,72.9667,80.91,73,100,3.02
158,Lebu,CL,2022-12-28 04:01:43,-37.6167,-73.65,54.54,80,7,22.3
159,Chokurdakh,RU,2022-12-28 04:01:43,70.6333,147.9167,-25.29,100,97,6.62
160,Broome,US,2022-12-28 04:01:44,42.2506,-75.833,24.01,91,69,3.0
161,Severo-Kuril'sk,RU,2022-12-28 04:01:44,50.6789,156.125,31.8,79,80,22.3
162,São José do Belmonte,BR,2022-12-28 04:01:44,-7.8614,-38.7597,72.48,78,67,6.4
163,Agirish,RU,2022-12-28 04:01:45,61.9247,63.0231,-0.29,95,24,4.36
164,Necochea,AR,2022-12-28 04:01:45,-38.5473,-58.7368,61.41,82,100,15.93
165,Esperance,AU,2022-12-28 04:01:45,-33.8667,121.9,65.25,50,3,11.88
166,Hargeisa,SO,2022-12-28 04:01:46,9.56,44.065,57.43,94,28,9.4
167,Tura,IN,2022-12-28 04:01:46,25.5198,90.2201,67.12,37,0,2.13
168,Hambantota,LK,2022-12-28 04:01:47,6.1241,81.1185,79.14,94,20,3.44
169,Yellowknife,CA,2022-12-28 04:01:47,62.456,-114.3525,0.55,84,100,11.99
170,Nālūt,LY,2022-12-28 03:57:58,30.3333,10.85,51.3,61,0,7.74
171,Atar,MR,2022-12-28 04:01:48,20.5169,-13.0499,67.57,23,100,1.66
172,Tessalit,ML,2022-12-28 04:01:48,20.1986,1.0114,63.34,30,100,10.63
173,Siocon,PH,2022-12-28 04:01:48,7.7061,122.1353,82.27,77,100,7.81
174,Gobabis,NA,2022-12-28 04:01:48,-22.45,18.9667,69.4,62,98,11.97
175,Comodoro Rivadavia,AR,2022-12-28 03:57:59,-45.8667,-67.5,62.46,17,0,13.8
176,Huarmey,PE,2022-12-28 04:01:49,-10.0681,-78.1522,69.82,84,100,8.23
177,Berlevåg,NO,2022-12-28 04:01:49,70.8578,29.0864,19.35,73,94,31.07
178,Makushino,RU,2022-12-28 04:01:50,55.2103,67.2442,-1.35,98,8,5.86
179,Iqaluit,CA,2022-12-28 04:01:50,63.7506,-68.5145,-5.21,89,99,3.85
180,Labuhan,ID,2022-12-28 03:58:00,-6.8844,112.2051,84.07,72,93,9.66
181,Tarakan,ID,2022-12-28 04:01:50,3.3,117.6333,81.99,67,100,2.51
182,Leningradskiy,RU,2022-12-28 04:01:51,69.3833,178.4167,-23.42,99,92,5.68
183,Kahului,US,2022-12-28 04:01:51,20.8947,-156.47,76.84,77,19,11.01
184,Bengkulu,ID,2022-12-28 04:01:52,-3.8004,102.2655,82.89,66,100,7.63
185,Gizo Government Station,SB,2022-12-28 04:01:52,-8.103,156.8419,86.16,67,100,13.38
186,Katobu,ID,2022-12-28 03:58:02,-4.9408,122.5276,82.83,69,100,4.79
187,Sīra,IN,2022-12-28 03:58:02,13.7453,76.9092,75.92,67,10,6.69
188,Honiara,SB,2022-12-28 04:01:52,-9.4333,159.95,83.44,74,100,5.57
189,Sindor,RU,2022-12-28 04:01:53,62.8629,51.8905,-7.89,100,99,4.32
190,Narsaq,GL,2022-12-28 04:01:53,60.9167,-46.05,17.82,74,87,7.72
191,São Filipe,CV,2022-12-28 04:01:53,14.8961,-24.4956,70.07,59,37,9.42
192,Ahipara,NZ,2022-12-28 04:01:54,-35.1667,173.1667,66.42,86,66,4.07
193,Berbera,SO,2022-12-28 03:57:57,10.4396,45.0143,74.64,74,39,3.58
194,Souillac,MU,2022-12-28 04:01:55,-20.5167,57.5167,78.08,69,4,12.97
195,Kimbe,PG,2022-12-28 04:01:55,-5.5502,150.1429,85.24,69,100,9.42
196,Roald,NO,2022-12-28 04:01:56,62.5833,6.1333,34.75,64,66,18.41
197,Sokoni,TZ,2022-12-28 04:01:56,-6.4333,39.55,79.23,78,58,4.38
198,Mayo,US,2022-12-28 04:01:56,38.8876,-76.5119,33.13,78,0,3.44
199,Meulaboh,ID,2022-12-28 04:01:57,4.1363,96.1285,80.49,78,100,0.45
200,Tommot,RU,2022-12-28 04:01:58,58.9564,126.2925,-22.5,98,73,0.2
201,Saint Paul Harbor,US,2022-12-28 04:01:58,57.79,-152.4072,30.0,79,36,1.59
202,Gorontalo,ID,2022-12-28 04:01:59,0.5412,123.0595,87.62,60,100,3.56
203,Kumul,CN,2022-12-28 04:01:59,42.8,93.45,21.67,40,16,3.47
204,Nemuro,JP,2022-12-28 04:01:59,43.3236,145.575,34.86,68,10,9.44
205,Aklavik,CA,2022-12-28 04:02:00,68.2191,-135.0107,-24.79,99,100,5.77
206,Kruisfontein,ZA,2022-12-28 04:02:00,-34.0033,24.7314,60.89,92,19,4.74
207,Batticaloa,LK,2022-12-28 04:02:01,7.7102,81.6924,80.29,77,5,7.65
208,Celestún,MX,2022-12-28 04:02:01,20.8667,-90.4,69.87,73,16,10.54
209,Baharly,TM,2022-12-28 04:02:02,38.4362,57.4316,41.38,74,97,1.88
210,Kisarawe,TZ,2022-12-28 04:02:02,-6.9,39.0667,72.97,94,63,2.1
211,Aksu,CN,2022-12-28 04:02:02,41.1231,80.2644,22.66,50,0,2.33
212,Hilo,US,2022-12-28 04:02:03,19.7297,-155.09,79.29,94,0,1.01
213,Bakhtiyārpur,IN,2022-12-28 03:58:08,25.4667,85.5167,53.62,39,0,6.96
214,Rājākhera,IN,2022-12-28 04:02:03,26.8961,78.1714,58.35,32,0,9.55
215,Ulladulla,AU,2022-12-28 03:58:09,-35.35,150.4667,81.66,50,2,19.86
216,Badulla,LK,2022-12-28 04:00:42,6.9895,81.0557,75.16,80,7,5.12
217,Lorengau,PG,2022-12-28 04:02:04,-2.0226,147.2712,82.92,75,100,9.1
218,Bambous Virieux,MU,2022-12-28 04:02:05,-20.3428,57.7575,81.21,69,10,13.15
219,Verkhnyaya Inta,RU,2022-12-28 04:02:05,65.9811,60.3094,13.3,91,100,13.2
220,Jamestown,US,2022-12-28 03:58:37,42.097,-79.2353,27.01,96,100,3.0
221,Eureka,US,2022-12-28 04:02:06,40.8021,-124.1637,49.93,93,91,1.01
222,Arman',RU,2022-12-28 04:02:06,59.7,150.1667,0.18,79,0,9.48
223,Russell,US,2022-12-28 04:00:38,32.3502,-85.1999,36.01,77,29,2.64
224,Nouadhibou,MR,2022-12-28 04:02:07,20.931,-17.0347,64.98,77,0,2.59
225,Milazzo,IT,2022-12-28 04:02:07,38.2212,15.2383,59.83,89,3,4.0
226,Saskylakh,RU,2022-12-28 04:02:08,71.9167,114.0833,-40.67,100,97,4.16
227,San Borja,BO,2022-12-28 03:58:11,-14.8167,-66.85,74.08,96,95,2.77
228,Fonte Boa,BR,2022-12-28 03:58:11,-2.4959,-66.2662,73.67,97,100,2.39
229,Khatanga,RU,2022-12-28 04:02:08,71.9667,102.5,-35.1,100,99,2.66
230,Finschhafen,PG,2022-12-28 04:02:09,-6.6024,147.8681,87.24,70,99,15.32
231,Tapiramutá,BR,2022-12-28 04:02:09,-11.8472,-40.7914,64.2,98,93,3.36
232,Maraã,BR,2022-12-28 04:02:09,-1.8333,-65.3667,72.55,99,100,2.71
233,Hualmay,PE,2022-12-28 04:02:10,-11.0964,-77.6139,69.44,85,100,8.41
234,La Santisima Trinidad,BO,2022-12-28 04:02:10,-14.8333,-64.9,73.83,95,16,4.25
235,Tabou,CI,2022-12-28 04:02:10,4.423,-7.3528,78.01,80,8,5.79
236,Sakaidechō,JP,2022-12-28 04:02:11,34.3167,133.85,53.98,72,13,11.5
237,Anadyr,RU,2022-12-28 04:01:14,64.75,177.4833,-15.29,88,3,9.4
238,Kumba,CM,2022-12-28 03:58:14,4.6363,9.4469,71.4,76,37,1.3
239,Praia da Vitória,PT,2022-12-28 03:57:40,38.7333,-27.0667,61.05,100,75,8.75
240,Hutchinson,US,2022-12-28 04:00:52,38.0608,-97.9298,41.59,59,26,7.0
241,Saint-Philippe,RE,2022-12-28 04:02:12,-21.3585,55.7679,81.99,74,36,10.22
242,Nishihara,JP,2022-12-28 04:02:12,26.1842,127.7558,69.85,62,40,13.8
243,Ulsteinvik,NO,2022-12-28 04:02:12,62.3432,5.8487,34.75,76,80,5.99
244,Port-Cartier,CA,2022-12-28 04:02:12,50.0334,-66.8654,-2.18,86,11,7.43
245,Naraini,IN,2022-12-28 04:02:13,25.1833,80.4833,60.3,37,3,6.93
246,Marystown,CA,2022-12-28 04:02:13,47.1666,-55.1483,36.99,83,99,24.67
247,Nantucket,US,2022-12-28 04:02:14,41.2835,-70.0995,33.91,59,0,5.75
248,Kokopo,PG,2022-12-28 04:02:14,-4.352,152.2633,86.16,53,38,11.97
249,Richards Bay,ZA,2022-12-28 03:59:59,-28.783,32.0377,72.99,87,54,9.62
250,Grindavik,IS,2022-12-28 04:02:16,63.8424,-22.4338,21.67,73,20,11.5
251,Yantal',RU,2022-12-28 04:02:16,56.8471,105.2542,12.58,93,100,5.12
252,Kargasok,RU,2022-12-28 04:02:17,59.0556,80.8572,2.41,98,100,5.39
253,Tezu,IN,2022-12-28 04:02:17,27.9167,96.1667,65.34,36,78,3.49
254,Whyalla,AU,2022-12-28 03:58:18,-33.0333,137.5833,68.99,51,30,24.79
255,Prince Rupert,CA,2022-12-28 04:02:17,54.3161,-130.3201,35.69,100,100,6.91
256,Quatre Cocos,MU,2022-12-28 04:02:18,-20.2078,57.7625,81.09,67,12,13.13
257,Philadelphia,US,2022-12-28 04:00:04,39.9523,-75.1638,33.96,74,21,2.73
258,Bubaque,GW,2022-12-28 04:02:18,11.2833,-15.8333,76.32,72,91,14.9
259,Jinchang,CN,2022-12-28 04:02:19,38.4953,102.1739,23.4,29,31,2.66
260,São José da Coroa Grande,BR,2022-12-28 04:02:19,-8.8978,-35.1478,76.6,85,6,7.67
261,Lewistown,US,2022-12-28 03:58:19,40.5992,-77.5714,29.71,93,100,0.0
262,Ribeira Grande,PT,2022-12-28 04:02:19,38.5167,-28.7,61.77,95,90,7.0
263,Dubove,UA,2022-12-28 04:02:20,48.1721,23.8895,32.38,86,37,1.21
264,Katsuura,JP,2022-12-28 04:02:20,35.1333,140.3,55.92,56,75,18.14
265,Esim,GH,2022-12-28 04:02:20,4.8699,-2.2405,76.35,80,42,5.64
266,Antiguo Morelos,MX,2022-12-28 03:58:20,22.5495,-99.0812,56.91,92,1,4.05
267,Bartica,GY,2022-12-28 04:02:21,6.4,-58.6167,71.06,99,90,0.56
268,Anshun,CN,2022-12-28 04:02:21,26.25,105.9333,32.92,98,100,6.93
269,Caceres,ES,2022-12-28 03:52:25,39.522,-6.3748,45.7,88,1,1.28
270,Rawson,AR,2022-12-28 04:02:22,-43.3002,-65.1023,59.09,60,28,10.07
271,Fortuna,US,2022-12-28 04:02:22,40.5982,-124.1573,49.66,95,100,8.05
272,Isangel,VU,2022-12-28 04:02:22,-19.55,169.2667,82.31,75,98,10.02
273,Adrar,MR,2022-12-28 04:02:23,20.5022,-10.0711,65.71,27,57,12.08
274,Panabá,MX,2022-12-28 04:02:23,21.2833,-88.2667,64.85,83,1,6.35
275,Zheleznodorozhnyy,RU,2022-12-28 04:02:23,55.7503,38.0042,29.35,97,100,6.33
276,Bontang,ID,2022-12-28 04:02:24,0.1333,117.5,86.99,56,99,1.86
277,Qaqortoq,GL,2022-12-28 04:02:24,60.7167,-46.0333,13.41,81,94,7.27
278,Seoul,KR,2022-12-28 03:57:45,37.5683,126.9778,33.19,31,0,11.5
279,Poum,NC,2022-12-28 04:02:25,-20.2333,164.0167,79.97,83,100,19.51
280,Rocky Mountain House,CA,2022-12-28 04:02:25,52.3668,-114.9188,21.22,95,100,8.1
281,Kariba,ZW,2022-12-28 04:02:25,-16.5167,28.8,69.24,65,23,3.44
282,Tautira,PF,2022-12-28 04:02:26,-17.7333,-149.15,80.37,75,4,11.48
283,Camocim,BR,2022-12-28 04:02:26,-2.9022,-40.8411,78.04,82,66,10.67
284,Sioux Lookout,CA,2022-12-28 04:02:27,50.1001,-91.917,7.43,97,92,5.44
285,Indramayu,ID,2022-12-28 03:58:24,-6.3264,108.32,85.41,64,99,16.75
286,Atkinson,US,2022-12-28 04:02:27,42.8384,-71.147,26.28,74,0,1.01
287,Toktogul,KG,2022-12-28 04:02:27,41.8708,72.9402,23.94,67,100,1.68
288,Sinnamary,GF,2022-12-28 04:02:28,5.3833,-52.95,76.01,89,56,9.66
289,Manono,CD,2022-12-28 04:02:28,-7.3,27.4167,65.86,96,84,3.11
290,Sangar,RU,2022-12-28 04:02:28,63.9242,127.4739,-22.04,96,100,10.31
291,Acapulco de Juárez,MX,2022-12-28 03:58:40,16.8634,-99.8901,74.97,81,0,3.98
292,Bang Saphan,TH,2022-12-28 04:02:29,11.2126,99.5117,80.8,58,100,5.93
293,Kiryat Gat,IL,2022-12-28 04:02:29,31.61,34.7642,51.4,100,53,2.84
294,Vila Franca do Campo,PT,2022-12-28 04:02:30,37.7167,-25.4333,59.41,96,100,11.83
295,Soyo,AO,2022-12-28 04:02:30,-6.1349,12.3689,78.19,87,91,9.06
296,Koutiala,ML,2022-12-28 04:02:31,12.3917,-5.4642,68.86,24,98,8.23
297,Port-Gentil,GA,2022-12-28 04:02:31,-0.7193,8.7815,80.8,77,97,4.81
298,Banes,CU,2022-12-28 04:02:31,20.9625,-75.7186,73.51,88,3,4.85
299,Pochutla,MX,2022-12-28 04:02:32,15.7432,-96.4661,72.82,77,1,3.74
300,Diamantino,BR,2022-12-28 04:02:33,-14.4086,-56.4461,72.01,96,100,4.63
301,Serowe,BW,2022-12-28 04:02:33,-22.3833,26.7167,67.05,76,2,10.87
302,Loukhi,RU,2022-12-28 04:02:34,66.0764,33.0381,12.88,95,100,8.52
303,Vanavara,RU,2022-12-28 04:02:34,60.34,102.2797,-3.37,99,81,4.43
304,Flin Flon,CA,2022-12-28 03:58:01,54.7682,-101.865,-1.26,89,82,10.25
305,Port Blair,IN,2022-12-28 03:59:09,11.6667,92.75,84.24,65,40,8.05
306,Caravelas,BR,2022-12-28 04:02:34,-17.7125,-39.2481,73.2,93,100,3.47
307,Maceió,BR,2022-12-28 04:02:35,-9.6658,-35.7353,74.64,94,20,2.3
308,Cayenne,GF,2022-12-28 04:01:18,4.9333,-52.3333,75.24,94,40,0.0
309,Kontagora,NG,2022-12-28 04:02:35,10.3999,5.4695,67.66,27,1,8.75
310,Mangai,CD,2022-12-28 04:02:35,-4.05,19.5333,69.57,96,84,1.77
311,Kaitangata,NZ,2022-12-28 04:02:36,-46.2817,169.8464,68.76,64,13,7.45
312,Bariloche,AR,2022-12-28 03:58:30,-41.1456,-71.3082,51.55,46,0,16.11
313,Solnechnyy,RU,2022-12-28 03:58:30,50.7214,136.6319,10.96,90,100,2.68
314,Kaeo,NZ,2022-12-28 04:02:36,-35.1,173.7833,75.33,66,42,5.82
315,Ternate,ID,2022-12-28 04:02:37,0.8,127.4,84.13,72,90,11.01
316,Wau,SS,2022-12-28 04:02:37,7.7029,27.9953,64.94,32,27,4.85
317,Bintulu,MY,2022-12-28 04:02:38,3.1667,113.0333,82.58,71,100,3.15
318,Sur,OM,2022-12-28 04:02:38,22.5667,59.5289,73.08,71,5,8.61
319,Marawi,PH,2022-12-28 04:02:38,7.9986,124.2928,72.9,89,100,4.76
320,Nieuw Amsterdam,SR,2022-12-28 03:58:31,5.8833,-55.0833,77.16,90,74,7.16
321,Langenlois,AT,2022-12-28 04:02:39,48.4904,15.6521,34.03,88,6,3.4
322,Umluj,SA,2022-12-28 04:02:39,25.0213,37.2685,62.38,51,0,19.71
323,Biloela,AU,2022-12-28 04:00:05,-24.4167,150.5,89.42,25,0,8.55
324,Tazovsky,RU,2022-12-28 04:02:39,67.4667,78.7,-15.3,99,83,8.55
325,Nikolskoye,RU,2022-12-28 04:02:40,59.7035,30.7861,31.89,92,98,8.01
326,Jamame,SO,2022-12-28 03:58:33,0.0722,42.7506,76.46,82,5,6.22
327,La Asuncion,VE,2022-12-28 04:02:40,11.0333,-63.8628,85.73,70,38,11.5
328,Portland,US,2022-12-28 03:50:33,45.5234,-122.6762,45.45,94,75,3.44
329,Okhotsk,RU,2022-12-28 04:02:41,59.3833,143.3,-3.66,75,0,18.54
330,Gweta,BW,2022-12-28 04:02:41,-20.1833,25.2333,76.39,46,11,9.69
331,Port Hardy,CA,2022-12-28 04:02:41,50.6996,-127.4199,43.74,89,100,15.95
332,Port Hawkesbury,CA,2022-12-28 04:02:42,45.6169,-61.3485,28.9,79,100,14.97
333,Sarakhs,IR,2022-12-28 04:02:42,36.5449,61.1577,41.58,77,100,2.53
334,Boyolangu,ID,2022-12-28 04:02:42,-8.1181,111.8935,84.33,70,59,6.04
335,Ust-Tsilma,RU,2022-12-28 04:02:43,65.441,52.1498,-6.0,99,76,4.23
336,Aykhal,RU,2022-12-28 04:02:43,66.0,111.5,1.18,95,92,17.63
337,Barranca,PE,2022-12-28 04:02:43,-10.75,-77.7667,69.37,82,100,6.6
338,Jalu,LY,2022-12-28 04:02:44,29.0331,21.5482,53.26,65,0,3.94
339,Tehachapi,US,2022-12-28 03:58:35,35.1322,-118.449,48.4,90,100,17.0
340,Karratha,AU,2022-12-28 04:02:44,-20.7377,116.8463,90.93,50,48,9.51
341,Balkhash,KZ,2022-12-28 03:58:36,46.844,74.9804,7.41,78,0,8.95
342,Kisangani,CD,2022-12-28 04:02:45,0.5167,25.2,65.48,75,97,2.3
343,Malindi,KE,2022-12-28 04:02:45,-3.2175,40.1191,76.89,86,76,2.73
344,Sirte,LY,2022-12-28 03:58:37,31.2089,16.5887,60.6,69,0,7.14
345,Kamaishi,JP,2022-12-28 04:02:45,39.2667,141.8833,46.36,62,100,12.3
346,Kushima,JP,2022-12-28 04:02:46,31.4583,131.2333,57.83,52,44,9.53
347,Klimovo,RU,2022-12-28 04:02:46,52.3805,32.1923,31.96,92,100,15.86
348,Arona,ES,2022-12-28 03:58:38,28.0996,-16.681,63.39,72,40,19.57
349,Pisco,PE,2022-12-28 04:02:47,-13.7,-76.2167,67.01,93,96,1.43
350,Meridian,US,2022-12-28 03:59:02,43.6121,-116.3915,44.38,71,100,4.34
351,Guadix,ES,2022-12-28 04:02:48,37.2993,-3.1392,48.31,48,100,2.71
352,Ingrāj Bāzār,IN,2022-12-28 04:02:48,25.0,88.15,65.71,28,0,7.87
353,Sabang,ID,2022-12-28 04:00:11,5.8933,95.3214,80.85,71,100,13.4
354,Bonthe,SL,2022-12-28 04:02:49,7.5264,-12.505,76.55,84,7,2.86
355,Pastavy,BY,2022-12-28 04:02:49,55.1168,26.8326,32.88,87,99,13.15
356,Davila,PH,2022-12-28 04:02:49,18.4726,120.5763,75.96,71,33,23.53
357,Kagoro,NG,2022-12-28 03:58:40,9.6,8.3833,59.49,38,4,7.27
358,Greymouth,NZ,2022-12-28 04:02:50,-42.4667,171.2,68.92,64,3,7.29
359,Sambava,MG,2022-12-28 04:02:50,-14.2667,50.1667,75.33,83,7,8.46
360,Carman,CA,2022-12-28 04:02:51,49.4992,-98.0016,11.89,97,100,5.99
361,Cayambe,EC,2022-12-28 04:02:51,0.05,-78.1333,50.14,97,85,2.21
362,Yar-Sale,RU,2022-12-28 04:02:51,66.8333,70.8333,-13.47,99,17,7.47
363,Freeport,US,2022-12-28 04:02:51,40.6576,-73.5832,35.65,64,100,6.91
364,Husavik,IS,2022-12-28 04:02:52,66.0449,-17.3389,22.03,92,100,23.06
365,Rafaela,AR,2022-12-28 03:58:42,-31.2503,-61.4867,71.98,36,0,1.01
366,San Quintín,MX,2022-12-28 04:02:53,30.4833,-115.95,60.91,77,100,3.31
367,Port Lincoln,AU,2022-12-28 04:02:53,-34.7333,135.8667,63.68,49,3,18.1
368,Āsosa,ET,2022-12-28 04:02:53,10.0667,34.5333,56.28,51,3,4.9
369,Pacific Grove,US,2022-12-28 04:02:54,36.6177,-121.9166,53.71,92,40,5.75
370,Arraial do Cabo,BR,2022-12-28 04:02:54,-22.9661,-42.0278,73.71,93,100,15.39
371,Kalmunai,LK,2022-12-28 04:02:54,7.4167,81.8167,80.64,76,5,7.29
372,Ancud,CL,2022-12-28 04:02:55,-41.8697,-73.8203,47.32,76,3,7.7
373,Denpasar,ID,2022-12-28 03:59:33,-8.65,115.2167,80.26,94,40,8.05
374,Palmer,US,2022-12-28 04:00:40,42.1584,-72.3287,25.52,69,17,1.57
375,Beira,MZ,2022-12-28 04:02:55,-19.8436,34.8389,75.54,79,29,1.95
376,Maple Creek,CA,2022-12-28 04:02:55,49.9168,-109.4848,39.42,78,100,16.2
377,Jacareacanga,BR,2022-12-28 04:02:56,-6.2222,-57.7528,69.75,100,84,1.77
378,Posse,BR,2022-12-28 04:02:56,-14.0931,-46.3694,65.53,92,94,4.23
379,Muros,ES,2022-12-28 04:02:56,42.7762,-9.0603,56.08,83,97,17.4
380,Ciudad del Carmen,MX,2022-12-28 04:00:51,18.6333,-91.8333,72.73,71,0,7.81
381,Barrow,US,2022-12-28 04:02:57,71.2906,-156.7887,-7.58,77,0,19.57
382,Honningsvåg,NO,2022-12-28 04:02:57,70.9821,25.9704,22.75,80,40,40.29
383,Ust-Nera,RU,2022-12-28 04:02:58,64.5667,143.2,-32.12,97,58,4.52
384,Beyneu,KZ,2022-12-28 04:02:58,45.3167,55.2,22.78,86,34,4.88
385,Darhan,MN,2022-12-28 03:58:46,49.4867,105.9228,-6.7,86,5,5.28
386,Chegem,RU,2022-12-28 03:58:46,43.2833,43.1333,5.13,70,100,12.41
387,Coquimbo,CL,2022-12-28 04:02:59,-29.9533,-71.3436,63.55,84,10,1.3
388,Ormara,PK,2022-12-28 04:02:59,25.2088,64.6357,71.73,77,45,3.36
389,Ongandjera,NA,2022-12-28 04:02:59,-17.8833,15.0667,73.62,29,62,8.5
390,Dunedin,NZ,2022-12-28 04:02:18,-45.8742,170.5036,68.54,70,0,14.32
391,Mormugao,IN,2022-12-28 04:03:00,15.4,73.8,81.1,65,9,5.3
392,Talladega,US,2022-12-28 04:03:00,33.4359,-86.1058,35.06,83,0,0.0
393,Talnakh,RU,2022-12-28 04:03:00,69.4865,88.3972,-6.12,98,97,4.99
394,Auki,SB,2022-12-28 04:03:01,-8.7676,160.7034,84.31,75,84,10.92
395,West Bay,KY,2022-12-28 04:03:01,19.3667,-81.4167,75.99,87,37,1.99
396,Khandyga,RU,2022-12-28 04:03:01,62.6667,135.6,-33.97,98,98,1.16
397,Namatanai,PG,2022-12-28 04:03:02,-3.6667,152.4333,85.23,59,15,6.55
398,Chernyshevskiy,RU,2022-12-28 04:03:02,63.0128,112.4714,4.84,94,100,10.2
399,Salta,AR,2022-12-28 03:58:48,-24.7859,-65.4117,66.79,80,75,4.61
400,Avera,US,2022-12-28 04:03:03,33.194,-82.5271,30.9,69,2,1.99
401,Maiduguri,NG,2022-12-28 03:58:49,11.8464,13.1603,60.84,58,0,8.21
402,Canmore,CA,2022-12-28 03:59:23,51.0834,-115.3521,39.31,86,100,4.61
403,Visby,SE,2022-12-28 03:58:49,57.6409,18.296,37.62,87,100,14.97
404,Nago,JP,2022-12-28 04:03:04,26.5881,127.9761,70.65,68,60,10.94
405,Montesarchio,IT,2022-12-28 04:03:04,41.0654,14.6402,53.92,95,50,3.02
406,Bocaiúva,BR,2022-12-28 04:03:05,-17.1078,-43.815,66.78,93,79,2.44
407,Gangāpur,IN,2022-12-28 03:58:51,26.4833,76.7167,62.71,24,0,3.09
408,Vardø,NO,2022-12-28 04:03:05,70.3705,31.1107,21.18,79,100,21.85
409,Saint-Pierre,RE,2022-12-28 03:55:24,-21.3393,55.4781,82.08,54,20,6.91
410,Oneida,US,2022-12-28 04:03:06,43.2001,-75.4663,25.95,74,100,3.44
411,Police,PL,2022-12-28 04:03:06,53.5521,14.5718,36.97,91,84,4.0
412,Andros Town,BS,2022-12-28 03:58:52,24.7,-77.7667,71.56,74,92,14.32
413,Maniitsoq,GL,2022-12-28 04:03:06,65.4167,-52.9,19.92,78,99,13.35
414,Cabedelo,BR,2022-12-28 04:03:07,-6.9811,-34.8339,77.88,81,9,11.18
415,Senneterre,CA,2022-12-28 04:03:07,48.3835,-77.2328,12.87,96,100,6.2
416,The Valley,AI,2022-12-28 03:59:31,18.217,-63.0578,79.11,76,57,23.62
417,Longfeng,CN,2022-12-28 03:58:53,46.55,125.1167,8.92,83,95,8.59
418,Nur-Sultan,KZ,2022-12-28 03:59:36,51.1801,71.446,1.35,85,40,8.95
419,Mittagong,AU,2022-12-28 04:03:08,-34.45,150.45,89.94,16,0,3.15
420,Amparafaravola,MG,2022-12-28 04:03:08,-17.5833,48.2167,66.45,82,100,2.44
421,Genhe,CN,2022-12-28 04:03:08,50.7833,121.5167,2.03,90,100,3.51
422,Arrifes,PT,2022-12-28 04:03:09,37.7667,-25.7,57.45,100,75,16.11
423,Sherman,US,2022-12-28 04:00:08,33.6357,-96.6089,42.19,56,0,18.41
424,Madera,US,2022-12-28 04:02:29,37.1666,-119.8343,55.53,95,100,1.01
425,Oranjestad,AW,2022-12-28 04:01:46,12.524,-70.027,79.92,86,0,5.99
426,Kamenka,RU,2022-12-28 04:03:10,51.3223,42.7678,27.01,95,100,16.64
427,Coari,BR,2022-12-28 03:58:55,-4.085,-63.1414,73.56,98,100,5.06
428,Saint Anthony,US,2022-12-28 04:03:10,45.0205,-93.218,24.73,81,0,12.66
429,Taoudenni,ML,2022-12-28 04:03:10,22.6783,-3.9836,65.14,28,5,10.58
430,Geraldton,AU,2022-12-28 04:01:10,-28.7667,114.6,95.41,17,0,14.97
431,Cleveland,US,2022-12-28 03:58:21,41.4995,-81.6954,31.19,87,100,10.36
432,Ozernovskiy,RU,2022-12-28 03:58:56,51.5,156.5167,27.09,89,100,8.34
433,Batasan,PH,2022-12-28 04:03:11,12.7667,120.7833,81.93,64,100,4.85
434,Faanui,PF,2022-12-28 04:03:12,-16.4833,-151.75,81.3,72,69,12.46
435,Goderich,CA,2022-12-28 04:03:12,43.7501,-81.7165,27.91,84,100,24.94
436,Iquique,CL,2022-12-28 04:02:55,-20.2208,-70.1431,68.83,82,34,1.97
437,Shelburne,CA,2022-12-28 04:00:34,44.0787,-80.2041,23.9,95,100,14.56
438,Itoman,JP,2022-12-28 04:03:13,26.1247,127.6694,70.57,63,20,13.8
439,Ungheni,MD,2022-12-28 03:58:57,47.2042,27.7958,36.28,71,0,2.3
440,Jiexiu,CN,2022-12-28 04:03:13,37.0244,111.9125,28.53,15,0,6.62
441,Bosaso,SO,2022-12-28 04:03:13,11.2842,49.1816,73.8,76,46,2.64
442,Pangnirtung,CA,2022-12-28 03:58:58,66.1451,-65.7125,1.8,61,93,6.85
443,Nioro,GM,2022-12-28 04:03:14,13.35,-15.75,67.21,70,100,7.34
444,Sorong,ID,2022-12-28 04:03:14,-0.8833,131.25,82.89,69,100,5.32
445,Bodden Town,KY,2022-12-28 04:02:51,19.2833,-81.25,75.92,89,28,3.0
446,Sakakah,SA,2022-12-28 04:03:15,29.9697,40.2064,45.82,84,11,1.92
447,Puerto Concordia,CO,2022-12-28 04:03:15,2.6221,-72.7572,77.04,66,51,2.66
448,Indianola,US,2022-12-28 03:59:00,41.3581,-93.5574,32.9,65,68,15.01
449,Tiznit Province,MA,2022-12-28 04:03:16,29.5833,-9.5,57.6,40,34,9.24
450,Kérouané,GN,2022-12-28 04:03:17,9.2667,-9.0167,67.6,34,18,3.13
451,Shuangyang,CN,2022-12-28 04:03:17,43.5242,125.6736,7.45,81,100,9.33
452,Valle Hermoso,MX,2022-12-28 04:03:18,25.6667,-97.8333,48.06,73,0,6.15
453,Garoowe,SO,2022-12-28 04:03:18,8.4054,48.4845,65.08,80,12,6.38
454,Eenhana,NA,2022-12-28 04:00:55,-17.4667,16.3333,75.02,41,98,5.46
455,Ostrovnoy,RU,2022-12-28 04:03:19,68.0531,39.5131,19.04,88,85,20.54
456,Saint John,CA,2022-12-28 04:03:19,45.2727,-66.0677,18.72,73,10,8.88
457,Nerchinskiy Zavod,RU,2022-12-28 04:03:19,51.3088,119.61,1.36,88,100,2.75
458,São Geraldo do Araguaia,BR,2022-12-28 03:59:03,-6.4006,-48.555,72.57,99,100,2.98
459,Bud,US,2022-12-28 03:59:03,39.447,-86.1758,30.31,87,98,12.19
460,Ignatovka,RU,2022-12-28 04:03:20,53.9479,47.6536,7.68,99,98,4.52
461,Nuuk,GL,2022-12-28 04:03:20,64.1835,-51.7216,15.89,83,68,8.52
462,Iranshahr,IR,2022-12-28 04:03:21,27.2025,60.6848,63.46,73,71,2.3
463,Bathsheba,BB,2022-12-28 04:03:21,13.2167,-59.5167,76.08,81,11,16.82
464,Lagoa,PT,2022-12-28 04:03:21,39.05,-27.9833,60.6,95,94,16.78
465,Boa Vista,BR,2022-12-28 04:03:22,2.8197,-60.6733,72.77,91,95,4.16
466,Normandin,CA,2022-12-28 04:03:22,48.8333,-72.5321,3.51,96,12,1.57
467,Turukhansk,RU,2022-12-28 04:03:23,65.8167,87.9833,1.53,96,100,9.33
468,Elk City,US,2022-12-28 04:03:23,35.412,-99.4043,50.22,40,0,19.57
469,Le Pradet,FR,2022-12-28 03:59:05,43.1066,6.0172,56.62,75,0,3.44
470,Coahuayana Viejo,MX,2022-12-28 04:03:24,18.7333,-103.6833,72.82,71,87,2.55
471,Mulegé,MX,2022-12-28 04:03:24,26.8833,-111.9833,65.46,37,11,5.39
472,Dhidhdhoo,MV,2022-12-28 04:03:24,6.8833,73.1,81.0,78,21,13.06
473,Kudahuvadhoo,MV,2022-12-28 04:03:25,2.6708,72.8944,81.23,69,96,6.49
474,Tahoua,NE,2022-12-28 04:03:25,14.8888,5.2692,61.43,33,14,13.31
475,Ubari,LY,2022-12-28 04:03:25,26.5921,12.7805,50.83,64,0,5.26
476,Buala,SB,2022-12-28 03:59:08,-8.145,159.5921,83.77,74,96,9.37
477,Srednekolymsk,RU,2022-12-28 04:03:26,67.45,153.6833,-29.7,100,100,6.26
478,Matara,LK,2022-12-28 04:03:26,5.9485,80.5353,81.43,72,26,7.43
479,Ayagoz,KZ,2022-12-28 04:03:26,47.9714,80.4392,-1.73,87,7,2.28
480,Okha,RU,2022-12-28 03:59:09,53.5739,142.9478,-1.3,88,13,13.8
481,Cockburn Town,TC,2022-12-28 04:00:24,21.4612,-71.1419,79.25,79,0,22.21
482,Muroto-misakicho,JP,2022-12-28 03:59:09,33.2833,134.15,52.84,61,3,2.75
483,Havøysund,NO,2022-12-28 04:03:27,70.9963,24.6622,23.23,81,95,20.83
484,Ailigandí,PA,2022-12-28 04:03:28,9.2333,-78.0167,77.5,83,22,5.41
485,Susanville,US,2022-12-28 04:03:28,40.4163,-120.653,37.24,83,20,11.5
486,Schwerin,DE,2022-12-28 04:03:02,53.6294,11.4132,40.71,90,100,11.01
487,Saint George,US,2022-12-28 03:59:40,37.1041,-113.5841,49.95,80,100,3.0
488,Pontes e Lacerda,BR,2022-12-28 04:03:29,-15.2261,-59.3353,75.18,84,82,1.95
489,Karasjok,NO,2022-12-28 04:03:29,69.4719,25.5112,0.0,99,99,6.69
490,Ballina,AU,2022-12-28 04:01:08,-28.8667,153.5667,80.02,67,14,8.63
491,Batagay-Alyta,RU,2022-12-28 04:03:30,67.8006,130.4114,-12.41,89,100,1.59
492,Havre-St-Pierre,CA,2022-12-28 03:59:12,50.2334,-63.5986,10.4,74,47,14.9
493,Shahrud,IR,2022-12-28 03:59:14,36.4182,54.9763,33.26,72,99,4.05
494,Horadiz,AZ,2022-12-28 04:03:30,39.4488,47.3353,38.37,82,0,2.17
495,Chenghai,CN,2022-12-28 04:03:31,23.4632,116.768,62.73,55,11,8.75
496,Bathurst,AU,2022-12-28 04:00:17,-33.4166,149.5806,88.97,32,0,1.01
497,Massakory,TD,2022-12-28 03:59:14,12.996,15.7293,63.59,31,0,14.61
498,Springbok,ZA,2022-12-28 04:03:31,-29.6643,17.8865,57.72,45,0,2.84
499,Belaya Gora,RU,2022-12-28 04:03:32,68.5333,146.4167,-35.01,100,49,3.11
500,Chengde,CN,2022-12-28 04:03:33,40.9725,117.9361,22.12,30,0,6.76
501,Trat,TH,2022-12-28 03:59:15,12.5,102.5,86.83,48,98,9.95
502,Constitución,CL,2022-12-28 04:03:23,-35.3333,-72.4167,57.4,76,3,6.78
503,Kilosa,TZ,2022-12-28 04:03:33,-6.8333,36.9833,69.73,97,99,0.69
504,Meadow Lake,US,2022-12-28 04:00:36,34.8014,-106.5436,51.42,44,93,8.57
505,Raja,SS,2022-12-28 04:03:34,8.4596,25.678,61.68,30,18,5.57
506,Santa Cruz de la Sierra,BO,2022-12-28 04:03:34,-17.8,-63.1667,78.26,83,20,4.61
507,Singaparna,ID,2022-12-28 04:03:35,-7.3515,108.111,84.31,62,90,2.17
508,Orange Walk District,BZ,2022-12-28 03:59:17,17.8333,-88.8333,67.93,84,86,1.99
509,Morondava,MG,2022-12-28 04:03:35,-20.2833,44.2833,78.33,72,2,5.3
510,Cap Malheureux,MU,2022-12-28 03:59:17,-19.9842,57.6142,81.46,60,2,8.01
511,Cabinda,AO,2022-12-28 03:59:18,-5.55,12.2,78.12,90,62,6.76
512,Ciudad Ojeda,VE,2022-12-28 04:03:36,10.1964,-71.3082,75.45,85,11,6.11
513,Rūdbār,AF,2022-12-28 04:03:36,30.15,62.6,57.29,40,99,0.69
514,Hohhot,CN,2022-12-28 03:59:19,40.8106,111.6522,10.69,52,0,2.24
515,Vorokhta,UA,2022-12-28 04:03:37,48.2869,24.5719,27.61,87,27,4.05
516,Mamakan,RU,2022-12-28 04:03:37,57.8161,114.0028,-13.02,91,100,1.66
517,Minsk,BY,2022-12-28 04:03:37,53.9,27.5667,33.55,92,99,15.03
518,Kieta,PG,2022-12-28 03:59:20,-6.2167,155.6333,85.93,60,53,10.54
519,At-Bashi,KG,2022-12-28 04:03:38,41.1702,75.8106,10.11,67,92,2.08
520,Lyuban',BY,2022-12-28 03:59:21,52.7985,28.0048,31.98,88,99,12.86
521,Inuvik,CA,2022-12-28 03:59:53,68.3499,-133.7218,-24.74,72,40,0.0
522,Nísia Floresta,BR,2022-12-28 04:03:38,-6.0911,-35.2086,76.01,87,11,6.24
523,Mezen',RU,2022-12-28 04:03:39,65.8522,44.24,9.41,87,94,9.95
524,Matiari,PK,2022-12-28 03:59:22,25.5961,68.4467,67.14,16,1,2.82
525,Banda Aceh,ID,2022-12-28 04:03:39,5.5577,95.3222,81.68,74,99,9.78
526,Gigmoto,PH,2022-12-28 04:03:39,13.7796,124.39,78.98,83,100,16.87
527,Yinchuan,CN,2022-12-28 04:03:40,38.4681,106.2731,21.54,21,3,2.15
528,Pevek,RU,2022-12-28 04:03:40,69.7008,170.3133,-7.71,100,100,4.32
529,Romanovka,RU,2022-12-28 03:59:23,51.7443,42.7527,26.82,95,100,16.49
530,Yablonovo,RU,2022-12-28 04:03:40,50.8523,37.3574,32.77,95,100,14.97
531,Oranjemund,NA,2022-12-28 04:03:41,-28.55,16.4333,60.48,96,4,5.5
532,Çeşme,TR,2022-12-28 04:03:41,38.3228,26.3064,44.31,93,40,2.3
533,Lichinga,MZ,2022-12-28 04:03:41,-13.3128,35.2406,60.96,98,97,4.25
534,Jackson,US,2022-12-28 03:59:58,42.4165,-122.8345,42.08,88,98,1.01
535,Naze,JP,2022-12-28 04:03:42,28.3667,129.4833,59.63,71,90,9.89
536,Kolyvan',RU,2022-12-28 04:03:42,55.3053,82.7391,8.22,92,100,7.52
537,Fort Nelson,CA,2022-12-28 04:00:38,58.8053,-122.7002,-9.81,85,100,0.0
538,Kuvshinovo,RU,2022-12-28 04:03:42,57.0295,34.1725,27.03,97,100,4.18
539,Canutama,BR,2022-12-28 04:03:43,-6.5339,-64.3831,73.02,98,94,2.77
540,Aleksandrovsk-Sakhalinskiy,RU,2022-12-28 04:03:43,50.8975,142.1561,17.96,92,99,1.97
541,Seydi,TM,2022-12-28 04:03:43,39.4816,62.9137,40.8,74,99,5.82
542,Uddevalla,SE,2022-12-28 04:03:44,58.3478,11.9424,34.99,96,100,5.03
543,Kabanjahe,ID,2022-12-28 04:03:44,3.1001,98.4908,73.22,74,97,2.77
544,Resistencia,AR,2022-12-28 04:03:44,-27.4606,-58.9839,65.08,99,1,2.17
545,Touros,BR,2022-12-28 04:03:45,-5.1989,-35.4608,77.5,79,13,11.45
546,Mabaruma,GY,2022-12-28 04:03:45,8.2,-59.7833,71.02,98,85,1.39
547,Guinguinéo,SN,2022-12-28 04:03:45,14.2667,-15.95,64.45,86,100,6.85
548,Zandvoort,NL,2022-12-28 03:59:28,52.3749,4.5341,46.99,90,75,27.63
549,Pula,HR,2022-12-28 03:59:29,44.8683,13.8481,43.36,81,20,4.61
550,Pierre,US,2022-12-28 04:03:47,44.3683,-100.351,38.32,75,0,10.0
551,Channel-Port aux Basques,CA,2022-12-28 04:03:47,47.5702,-59.1367,30.63,73,100,27.09
552,Myitkyina,MM,2022-12-28 04:03:47,25.3833,97.4,66.38,66,22,2.55
553,Sørkjosen,NO,2022-12-28 04:03:48,69.8,20.9333,24.8,63,20,11.5
554,Morón,AR,2022-12-28 04:03:48,-34.6534,-58.6198,77.79,48,11,6.4
555,Provideniya,RU,2022-12-28 04:03:48,64.3833,-173.3,6.91,85,75,22.37
556,Megion,RU,2022-12-28 04:03:49,61.0296,76.1136,-8.05,99,57,7.52
557,Tocache,PE,2022-12-28 04:03:49,-8.1842,-76.5125,70.18,90,39,0.34
558,Ilulissat,GL,2022-12-28 04:03:49,69.2167,-51.1,12.22,44,72,14.97
559,Vidim,RU,2022-12-28 03:59:31,56.4088,103.1106,13.55,96,100,5.48
560,Forsytheganj,BY,2022-12-28 04:03:50,52.6333,29.7333,32.29,93,100,12.8
561,Oriximiná,BR,2022-12-28 04:03:50,-1.7656,-55.8661,72.66,97,100,2.26
562,Rome,US,2022-12-28 04:03:50,43.2128,-75.4557,25.88,74,100,3.44
563,Hare Bay,CA,2022-12-28 04:03:51,48.8499,-54.0148,27.75,96,100,3.09
564,Vao,NC,2022-12-28 04:03:51,-22.6667,167.4833,79.09,79,100,10.65
565,Strezhevoy,RU,2022-12-28 03:59:32,60.7333,77.5889,-3.21,100,90,6.06
566,Panama City,PA,2022-12-28 03:59:16,8.9936,-79.5197,78.75,82,20,4.61
567,Zyryanskoye,RU,2022-12-28 04:03:52,56.8306,86.6258,13.37,90,100,4.76
568,Sola,VU,2022-12-28 04:03:52,-13.8833,167.55,82.08,68,98,4.88
569,Kurlovo,RU,2022-12-28 04:03:52,55.4325,40.4854,25.03,95,100,11.25
570,Fare,PF,2022-12-28 03:59:34,-16.7,-151.0167,80.94,74,10,13.44
571,Massaguet,TD,2022-12-28 03:59:34,12.4755,15.4365,63.77,28,0,12.1
572,Ankang,CN,2022-12-28 04:03:53,32.68,109.0172,43.77,50,100,1.97
573,Lagos,NG,2022-12-28 03:49:50,6.5833,3.75,71.92,57,8,3.58
574,Isiolo,KE,2022-12-28 03:59:35,0.3546,37.5822,66.27,71,100,4.0
575,Pontianak,ID,2022-12-28 04:03:53,-0.0333,109.3333,84.18,70,20,10.36
576,Tilichiki,RU,2022-12-28 04:03:54,60.4667,166.1,-4.97,90,6,11.72
577,Ergani,TR,2022-12-28 04:03:54,38.2653,39.7621,36.63,63,100,4.07
578,Álamos,MX,2022-12-28 04:03:54,27.0167,-108.9333,63.34,28,15,2.48
579,San Luis Río Colorado,MX,2022-12-28 04:03:55,32.4631,-114.7767,69.91,47,100,7.34
580,Puyo,EC,2022-12-28 04:00:47,-1.4667,-77.9833,64.27,82,25,3.87
581,Juruti,BR,2022-12-28 04:03:55,-2.1522,-56.0922,72.61,97,100,2.33
582,Ilula,TZ,2022-12-28 04:03:56,-7.6766,36.0366,61.47,95,94,1.05
583,Simbahan,PH,2022-12-28 04:03:56,6.3032,120.5836,80.28,80,100,10.16
584,Ust'-Omchug,RU,2022-12-28 04:03:56,61.15,149.6333,-24.74,100,97,3.91
